{"places":[{"id":1,"Name":"Rowallane Garden","Category":"National Trust","Tags":"Garden","Location":"Saintfield","County":"Down","Price Range £":"5-10","Website\r":"https://www.nationaltrust.org.uk/rowallane-garden\r"},{"id":2,"Name":"Castle Ward","Category":"National Trust","Tags":"","Location":"Strangford","County":"Down","Price Range £":"5-10","Website\r":"https://www.nationaltrust.org.uk/castle-ward\r"},{"id":3,"Name":"Mount Stewart","Category":"National Trust","Tags":"Garden","Location":"Newtownards","County":"Down","Price Range £":"-","Website\r":"https://www.nationaltrust.org.uk/mount-stewart\r"},{"id":4,"Name":"Funky Monkeys Cityside","Category":"Soft Play","Tags":"","Location":"Belfast","County":"Antrim","Price Range £":"1-5","Website\r":"https://funkymonkeys.co/our-centres/cityside-belfast/\r"},{"id":5,"Name":"Happytown","Category":"Soft Play","Tags":"","Location":"Newtownards","County":"Down","Price Range £":"2-6","Website\r":"http://happytown.uk.com/\r"},{"id":6,"Name":"Jumpin Jacks","Category":"Soft Play","Tags":"","Location":"Lisburn","County":"Antrim/Down","Price Range £":"1-6","Website\r":"https://www.jumpingjacksni.co.uk/\r"},{"id":7,"Name":"High Rise","Category":"Soft Play","Tags":"","Location":"Lisburn","County":"Antrim/Down","Price Range £":"2-5","Website\r":"https://highriseni.org/soft-play/\r"},{"id":8,"Name":"We are Vertigo","Category":"Soft Play","Tags":"","Location":" Newtownbreda","County":"Down","Price Range £":"7","Website\r":"https://www.wearevertigo.com/\r"},{"id":9,"Name":"Funworks","Category":"Soft Play","Tags":"","Location":"Glengormley","County":"Antrim","Price Range £":"3-5","Website\r":"http://www.funworksplay.co.uk\r"},{"id":10,"Name":"Funtastic","Category":"Soft Play","Tags":"","Location":"Dundonald","County":"Down","Price Range £":"3-5","Website\r":"http://funtastic-play.com/\r"},{"id":11,"Name":"Antrim Forum","Category":"Soft Play","Tags":"Pool","Location":"Antrim","County":"Antrim","Price Range £":"3-5","Website\r":"https://antrimandnewtownabbey.gov.uk/antrimforum/\r"},{"id":12,"Name":"Laganvale","Category":"Soft Play","Tags":"Farm","Location":"Lisburn","County":"Antrim/Down","Price Range £":"5","Website\r":"http://www.laganvalefarm.com/\r"},{"id":13,"Name":"Dobbies","Category":"Soft Play","Tags":"Cafe","Location":"Lisburn","County":"Antrim/Down","Price Range £":"-","Website\r":"https://www.dobbies.com/find-a-garden-centre/lisburn\r"},{"id":14,"Name":"Global Adventures Ballynahinch","Category":"Soft Play","Tags":"","Location":"Ballynahinch","County":"Down","Price Range £":"","Website\r":"https://m.facebook.com/pg/GlobalAdventurePlays/about/\r"},{"id":15,"Name":"Roar and Explore","Category":"Soft Play","Tags":"","Location":"Dunmurry","County":"Antrim","Price Range £":"2-5","Website\r":"https://www.roarandexplore.com\r"},{"id":16,"Name":"Wallace Park","Category":"Parks/Walks","Tags":"","Location":"Lisburn","County":"Antrim/Down","Price Range £":"0","Website\r":"https://www.lisburncastlereagh.gov.uk/things-to-do/parks-and-open-spaces/wallace-park\r"},{"id":17,"Name":"Pickie Fun Park","Category":"Parks/Walks","Tags":"\"Cafe","Location":"Playground\"","County":"Bangor","Price Range £":"Down","Website\r":"0"},{"id":18,"Name":"Montalto Estate","Category":"Parks/Walks","Tags":"","Location":"Ballynahinch","County":"Down","Price Range £":"5-10","Website\r":"https://montaltoestate.com\r"},{"id":19,"Name":"Antrim Castle Gardens","Category":"Parks/Walks","Tags":"Castle","Location":"Antrim","County":"Antrim","Price Range £":"-","Website\r":"https://antrimgardens.com/the-gardens/antrim-castle-gardens/\r"},{"id":20,"Name":"Carnfunnock County Park","Category":"Parks/Walks","Tags":"","Location":"Larne","County":"Antrim","Price Range £":"5-10","Website\r":"http://www.carnfunnock.co.uk\r"},{"id":21,"Name":"Hillsborough Forest","Category":"Parks/Walks","Tags":"","Location":"Hillsborough","County":"Down","Price Range £":"0","Website\r":"https://discovernorthernireland.com/Hillsborough-Forest-Hillsborough-P3400/\r"},{"id":22,"Name":"Colin Glen","Category":"Parks/Walks","Tags":"","Location":"Dunmurry","County":"Antrim","Price Range £":"0","Website\r":"https://www.colinglen.org/\r"},{"id":23,"Name":"Drum Manor","Category":"Parks/Walks","Tags":"","Location":"Cookstown","County":"Tyrone","Price Range £":"0","Website\r":"https://www.nidirect.gov.uk/articles/drum-manor-forest-park\r"},{"id":24,"Name":"Slieve Guillon","Category":"Parks/Walks","Tags":"","Location":"Meigh","County":"Armagh","Price Range £":"0","Website\r":"http://walkni.com/walks/slieve-gullion/\r"},{"id":25,"Name":"Peatlands Park","Category":"Parks/Walks","Tags":"","Location":"Dungannon","County":"Armagh","Price Range £":"0","Website\r":"https://discovernorthernireland.com/Peatlands-Park-Dungannon-P2847/\r"},{"id":26,"Name":"Castlewellan","Category":"Parks/Walks","Tags":"","Location":"Castlewellan","County":"Down","Price Range £":"0-10","Website\r":"https://discovernorthernireland.com/Castlewellan-Forest-Park-Peace-Maze-Castlewellan-P2881/\r"},{"id":27,"Name":"Stormount Mo Mowlam Playground","Category":"Playground","Tags":"","Location":"Belfast","County":"Down","Price Range £":"0","Website\r":"https://www.nidirect.gov.uk/articles/mo-mowlam-play-park-children\r"},{"id":28,"Name":"Cafe Vic-Ryn","Category":"Cafe","Tags":"","Location":"Lisburn","County":"Antrim","Price Range £":"5-10","Website\r":"https://thehouseofvicryn.com/stores/cafe-vic-ryn/\r"},{"id":29,"Name":"Hillmount","Category":"Cafe","Tags":"","Location":"Belfast","County":"Down","Price Range £":"5-10","Website\r":"https://www.hillmount.co.uk/gardeners-rest-cafe\r"},{"id":30,"Name":"Streamvale","Category":"Farm","Tags":"","Location":"Belfast","County":"Down","Price Range £":"0-8","Website\r":"https://streamvale.com/\r"},{"id":31,"Name":"Ark Open Farm","Category":"Farm","Tags":"","Location":"Bangor","County":"Down","Price Range £":"6-7","Website\r":"https://www.thearkopenfarm.co.uk/\r"},{"id":32,"Name":"Mountpanther","Category":"Farm","Tags":"","Location":"Clough","County":"Down","Price Range £":"6-10","Website\r":"http://mountpanther.com/\r"},{"id":33,"Name":"Watertop Farm","Category":"Farm","Tags":"","Location":"Ballycastle","County":"Antrim","Price Range £":"3","Website\r":"http://www.watertopfarm.co.uk/\r"},{"id":34,"Name":"Causeway fun farm","Category":"Farm","Tags":"","Location":"Bushmills","County":"Antrim","Price Range £":"3-7","Website\r":"https://www.facebook.com/causewayfunfarm/\r"},{"id":35,"Name":"Fort Evergreen","Category":"Farm","Tags":"","Location":"Warrenport","County":"Down","Price Range £":"0-7","Website\r":"https://www.fortevergreen.co.uk/\r"},{"id":36,"Name":"Castle Espie","Category":"Farm","Tags":"","Location":"Comber","County":"Down","Price Range £":"4-8","Website\r":"https://www.wwt.org.uk/wetland-centres/castle-espie/\r"},{"id":37,"Name":"Drumawhey Trains","Category":"Trains","Tags":"","Location":"Donaghadee","County":"Down","Price Range £":"2-3","Website\r":"https://www.drumawhey.com/\r"},{"id":38,"Name":"Belfast Castle","Category":"Castle","Tags":"","Location":"Belfast","County":"Antrim","Price Range £":"","Website\r":"https://www.belfastcastle.co.uk/\r"},{"id":39,"Name":"Lisburn Leisureplex","Category":"Pool","Tags":"","Location":"Lisburn","County":"Antrim/Down","Price Range £":"5-10","Website\r":"https://www.theleisureplex.com/\r"},{"id":40,"Name":"Quality Time","Category":"Playground","Tags":"","Location":"Banbridge","County":"Down","Price Range £":"5","Website\r":"https://www.qualitytimeni.com/\r"},{"id":41,"Name":"Rainbow Gymnastics","Category":"Gymnastics","Tags":"","Location":"Dundonald","County":"Down","Price Range £":"50","Website\r":"https://www.rainbowgymclub.com/\r"},{"id":42,"Name":"Salto Gymnastics","Category":"Gymnastics","Tags":"","Location":"Lisburn","County":"Antrim/Down","Price Range £":"50","Website\r":"http://www.saltogymnastics.com/\r"},{"id":43,"Name":"Belfast Zoo","Category":"Animal Park","Tags":"","Location":"Belfast","County":"Antrim","Price Range £":"6-13","Website\r":"http://www.belfastzoo.co.uk/\r"},{"id":44,"Name":"Exploris Aquarium","Category":"Aquarium","Tags":"","Location":"Portaferry","County":"Down","Price Range £":"0-11","Website\r":"https://www.explorisni.com/\r"},{"id":45,"Name":"Ice Bowl","Category":"Active","Tags":"","Location":"Dundonald","County":"Down","Price Range £":"5-10","Website\r":"https://www.theicebowl.com/\r"},{"id":46,"Name":"Ulster Folk and Transport Museum                                                                                                                                                                                                                        ","Category":"Museum","Tags":"","Location":"Hollywood","County":"Down","Price Range £":"6-11","Website\r":"https://www.nmni.com/our-museums/Ulster-Folk-Museum/Home.aspx\r"},{"id":47,"Name":"Ulster Museum","Category":"Museum","Tags":"","Location":"Belfast","County":"Down","Price Range £":"0","Website\r":"https://www.nmni.com/our-museums/ulster-museum/Home.aspx\r"},{"id":48,"Name":"Barry's Amusements","Category":"Amusements","Tags":"","Location":"Portrush","County":"Antrim","Price Range £":"0","Website\r":"https://barrysamusements.com/\r"},{"id":49,"Name":"Carrickfergus Castle","Category":"Castle","Tags":"","Location":"Carrickfergus","County":"Antrim","Price Range £":"3-5","Website\r":"https://discovernorthernireland.com/Carrickfergus-Castle-Carrickfergus-P2814/\r"},{"id":50,"Name":"Whiterocks","Category":"Beaches","Tags":"","Location":"Portrush","County":"Antrim","Price Range £":"0","Website\r":"https://discovernorthernireland.com/Whiterocks-Beach-Portrush-Portrush-P7439/\r"},{"id":51,"Name":"Armagh Planetarium","Category":"Educational","Tags":"Planetarium","Location":"Armagh","County":"Armagh","Price Range £":"5-8","Website\r":"https://armagh.space/\r"},{"id":52,"Name":"W5","Category":"Educational","Tags":"","Location":"Belfast","County":"Down","Price Range £":"6-7","Website\r":"https://w5online.co.uk/"}]}